stop_id,stop_code,stop_name,stop_desc,stop_lat,stop_lon,location_type,parent_station
1166824,,"Olympiades","Rue de Tolbiac - 75113",48.82694828196076,2.367038433387592,0,
1166825,,"Olympiades","Rue de Tolbiac - 75113",48.82694828196076,2.367038433387592,0,
1166826,,"Bibliothèque-François Mitterrand","Face au 62 rue du Chevaleret - 75113",48.829830695271106,2.376120009344837,0,
1166827,,"Bibliothèque-François Mitterrand","Face au 62 rue du Chevaleret - 75113",48.829830695271106,2.376120009344837,0,
1166828,,"Cour Saint-Emilion","Rue François Truffaut - 75112",48.833520860805514,2.3862652367404573,0,
1166829,,"Cour Saint-Emilion","Rue François Truffaut - 75112",48.833520860805514,2.3862652367404573,0,
1166830,,"Bercy","Rue de Bercy - 75112",48.840542782965464,2.3794094631230687,0,
1166831,,"Bercy","Rue de Bercy - 75112",48.840542782965464,2.3794094631230687,0,
1166832,,"Gare de Lyon","Rue de Bercy - 75112",48.844652150982945,2.37310814754528,0,
1166833,,"Gare de Lyon","Rue de Bercy - 75112",48.844652150982945,2.37310814754528,0,
1166834,,"Châtelet","Théâtre du Châtelet - 75101",48.85895618133369,2.3473612552142624,0,
1166835,,"Châtelet","Théâtre du Châtelet - 75101",48.85895618133369,2.3473612552142624,0,
1166838,,"Madeleine","Rue De Sèze - 75108",48.869578970578424,2.324162488791942,0,
1166839,,"Madeleine","Rue De Sèze - 75108",48.869578970578424,2.324162488791942,0,
1166840,,"Saint-Lazare","Rue de l' Arcade - 75108",48.8755376703957,2.3251964899774276,0,
1166841,,"Saint-Lazare","Rue de l' Arcade - 75108",48.8755376703957,2.3251964899774276,0,
140078,,"Saint-Denis-Université","Gare Routière - 93066",48.94611087248738,2.3620451929905992,0,
140079,,"Saint-Denis-Université","Gare Routière - 93066",48.94611087248738,2.3620451929905992,0,
161468,,"Val d'europe","Place Jean Monnet - 77449",48.85549704826123,2.7736084332189748,0,
161469,,"Val d'europe","Place Jean Monnet - 77449",48.85549704826123,2.7736084332189748,0,
1628,,"Villepinte","Gare (place de la) - 93078",48.96316755011165,2.5123878278590865,0,
1629,,"Villiers","Parc de Monceau - 75117",48.88132429394468,2.3165967615088174,0,
1630,,"Villiers","Parc de Monceau - 75117",48.88140510041144,2.316147050907411,0,
1631,,"Vincennes","Rue de Montreuil - 94080",48.84732387116057,2.433531596877892,0,
1632,,"Volontaires","25 rue des Volontaires - 75115",48.84141844267774,2.307993649386661,0,
1633,,"Voltaire (Léon Blum)","Boulevard Voltaire - 75111",48.85766372576006,2.3800362967955064,0,
1634,,"Wagram","Place Monseigneur Loutil - 75117",48.883712476037346,2.3055577575143036,0,
1635,,"Danube","9 place Rhin et Danube - 75119",48.88195101817822,2.3932606758573876,0,
1636,,"Torcy","Rue Léon Blum - 77468",48.83959713753761,2.6545815811820037,0,
1637,,"Trocadéro","Place du Trocédéro - 75116",48.8630891350352,2.2868403784945937,0,
1638,,"Varenne","13 boulevard des Invalides - 75107",48.85639306919846,2.3147543648102884,0,
1639,,"Villejuif-Léo Lagrange","Rue du Dauphin - 94076",48.80376966328267,2.3639093063890435,0,
1640,,"Saint-Jacques","Terre-plein face au 46 boulevard Saint-Jacques - 75114",48.83299169177581,2.3366828966443496,0,
1641,,"Saint-Marcel","La Pitié-Salpêtrière - 75113",48.838516743515164,2.360727550361784,0,
1642,,"Saint-Paul (Le Marais)","Rivoli (terre plein face au 10 rue de) - 75104",48.85513451823504,2.3613343390676635,0,
1643,,"Sartrouville","Fusilles (Place des) - 78586",48.93751218318358,2.157311047020583,0,
1644,,"Quai de la Gare","Quai de la Gare - 75113",48.83761467578531,2.373852115680497,0,
1645,,"Raspail","Boulevard Edgard Quinet - 75114",48.83915698149679,2.330474151162931,0,
1646,,"Rennes","Terre-plein face au 78 boulevard Raspail - 75106",48.848198268824774,2.3280217486281134,0,
1647,,"République","Av de la République - 75111",48.86741082883539,2.363587825558049,0,
1648,,"Place d'Italie","Place d' Italie - 75113",48.831552302643125,2.3553334432190454,0,
1649,,"Place Monge (Jardin des Plantes)","Arènes de Lutèce - 75105",48.843164692766834,2.3521103624150967,0,
1650,,"Port-Royal","47 avenue de l' Observatoire - 75105",48.83988516597736,2.336873440890153,0,
1651,,"Nation","Terre-plein face au 3 place de la Nation - 75112",48.849010153648216,2.3976646127910075,0,
1652,,"Noisy-le-Grand (Mont d'Est)","Esplanade des Arcades - 93051",48.840882627372274,2.549350971449035,0,
1653,,"Odéon","Carrefour de l' Odéon - 75106",48.85231488119486,2.338861720336335,0,
1655,,"Marcadet-Poissonniers","88 boulevard Barbès - 75118",48.891543930630554,2.3493711153819112,0,
1656,,"La Fourche","Avenue de Clichy - 75117",48.8874368425293,2.3257252220174083,0,
1657,,"La Motte-Picquet-Grenelle","Face au 130-113 boulevard de Grenelle - 75115",48.849018928349764,2.297762160707931,0,
1659,,"Gambetta","Père-Lachaise - 75120",48.86503429801815,2.3985414869122423,0,
1660,,"Sceaux","Rue Jean-Louis Sinet - 92071",48.78148494919581,2.2972966908534893,0,
1661,,"Ségur","UNESCO - Miollis - 75115",48.84686470206919,2.307268847578926,0,
1662795,,"Les Agnettes","Angle rue des Bas et Rue Louis Calmel - 92004",48.92291633150906,2.285963896576634,0,
1662796,,"Les Agnettes","Angle rue des Bas et Rue Louis Calmel - 92004",48.92291633150906,2.285963896576634,0,
1662797,,"Asnières-Gennevilliers Les Courtilles","Angle Boulevard Pierre de Coubertin / Avenue Lucien Lanternier - 92004",48.93029362287076,2.2837606331952487,0,
1662798,,"Asnières-Gennevilliers Les Courtilles","Angle Boulevard Pierre de Coubertin / Avenue Lucien Lanternier - 92004",48.93029362287076,2.2837606331952487,0,
1662,,"Sentier","97 rue Réaumur - 75102",48.8673503814313,2.3475672354150805,0,
1663,,"Sevran-Beaudottes","Dumon d'urville (rue) - 93071",48.94773765113627,2.524042278144985,0,
1664,,"Sevran Livry","Gare (place de la) - 93071",48.936262249020956,2.534722783456677,0,
1665,,"Sèvres-Lecourbe","Terre-plein face au 94 boulevard Garibaldi - 75115",48.84499615085685,2.310864830044154,0,
1666,,"Sèvres-Babylone","Square Boucicaut - 75107",48.85093928843075,2.3261146548222844,0,
1667,,"Sèvres-Babylone","Square Boucicaut - 75107",48.85157746899621,2.3268907883428853,0,
1668,,"Simplon","38 boulevard Ornano - 75118",48.89412344466592,2.347245444443029,0,
1669,,"Solférino","Rue de Solférino - 75107",48.858533359508236,2.323089248787209,0,
1670,,"Saint-Germain-en-Laye","Rue de la Salle - 78551",48.898478198699756,2.094538804113546,0,